City,Cloudiness,Country,Date,Humidity,Lat,Lng,Max Temp,Wind Speed
Bredasdorp,0,ZA,1584196146,53,-34.53,20.04,77.0,17.22
Talaya,100,RU,1584196146,99,61.38,152.75,-11.11,5.66
Dandong,61,CN,1584196146,50,40.13,124.39,36.41,3.49
Punta Arenas,75,CL,1584196147,81,-53.15,-70.92,51.8,9.17
Airai,58,TL,1584196147,95,-8.93,125.41,66.83,1.43
Cape Town,20,ZA,1584196003,50,-33.93,18.42,79.0,11.41
Salekhard,100,RU,1584196147,88,66.53,66.6,12.83,18.21
Tual,100,ID,1584196147,79,-5.67,132.75,81.59,14.54
São Filipe,100,CV,1584195875,56,14.9,-24.5,76.37,19.01
Cabo San Lucas,40,MX,1584196053,88,22.89,-109.91,66.2,11.41
Alice Springs,90,AU,1584196055,30,-23.7,133.88,80.6,10.29
Harper,47,LR,1584196148,71,4.38,-7.72,86.63,7.76
Macia,0,MZ,1584196148,61,-25.03,33.1,85.73,10.36
Nkoteng,0,CM,1584196148,17,4.52,12.03,99.77,2.08
Mormugao,0,IN,1584196148,65,15.4,73.8,80.6,9.17
Klaksvík,100,FO,1584196148,80,62.23,-6.59,39.2,8.05
Half Moon Bay,90,US,1584196148,87,37.46,-122.43,53.01,11.41
George Town,20,MY,1584196030,74,5.41,100.34,86.0,4.7
Rikitea,96,PF,1584196149,73,-23.12,-134.97,77.63,11.36
Saskylakh,100,RU,1584196149,92,71.92,114.08,-0.67,16.24
Katsuura,75,JP,1584196149,86,35.13,140.3,41.0,11.41
Troitsk,100,RU,1584196149,89,54.1,61.58,35.33,11.45
Biak,99,ID,1584196149,71,-0.91,122.88,83.21,11.74
Pitimbu,75,BR,1584196149,74,-7.47,-34.81,84.2,9.17
Albany,90,US,1584196007,48,42.6,-73.97,43.0,18.34
Bilma,0,NE,1584196149,9,18.69,12.92,83.39,3.78
Bluff,91,NZ,1584196150,81,-46.6,168.33,54.0,1.99
Voh,100,NC,1584196150,79,-20.97,164.7,81.77,9.17
Benghazi,82,LY,1584196150,67,32.12,20.07,64.49,7.43
Tuktoyaktuk,90,CA,1584196150,79,69.45,-133.04,21.2,24.16
Lázaro Cárdenas,0,MX,1584196150,65,17.96,-102.2,80.33,3.15
Orocuina,75,HN,1584196150,68,13.48,-87.11,68.0,6.91
Roswell,90,US,1584195908,76,34.02,-84.36,66.0,5.99
Forrest City,90,US,1584196150,87,35.01,-90.79,50.0,7.72
Ushuaia,75,AR,1584195944,76,-54.8,-68.3,51.8,8.05
New Norfolk,90,AU,1584196151,66,-42.78,147.06,55.4,8.05
Bonthe,2,SL,1584196151,60,7.53,-12.51,88.43,12.62
Mossamedes,20,AO,1584196151,69,-15.2,12.15,82.4,17.22
Montepuez,100,MZ,1584196143,87,-13.13,39.0,77.63,5.03
Doha,75,QA,1584195904,53,25.29,51.53,80.6,3.36
Atuona,4,PF,1584196151,69,-9.8,-139.03,81.59,11.45
Carnarvon,40,AU,1584196152,83,-24.87,113.63,78.8,10.29
Nemuro,100,JP,1584196152,77,43.32,145.57,32.99,8.12
Pedernales,40,DO,1584196152,78,18.04,-71.74,80.6,4.7
Port Alfred,0,ZA,1584196152,85,-33.59,26.89,71.01,5.01
Tasiilaq,40,GL,1584196152,71,65.61,-37.64,8.6,4.9
Hilo,20,US,1584196152,73,19.73,-155.09,71.6,3.67
Vestmannaeyjar,1,IS,1584196152,74,63.44,-20.27,28.4,13.87
Barrow,90,US,1584196201,86,71.29,-156.79,26.6,24.16
Dingle,37,PH,1584196213,74,11.0,122.67,75.11,7.02
Tiksi,0,RU,1584196213,75,71.69,128.87,-17.59,7.52
Kapaa,1,US,1584196213,88,22.08,-159.32,66.2,9.17
Ancud,0,CL,1584196213,71,-41.87,-73.82,57.2,3.36
Kedgwick,100,CA,1584196214,83,47.64,-67.34,26.33,17.87
Mehamn,100,NO,1584196214,72,71.04,27.85,15.89,7.16
Mar del Plata,100,AR,1584196137,63,-38.0,-57.56,71.01,10.29
Nurota,14,UZ,1584196214,37,40.56,65.69,62.6,9.17
Ust-Nera,0,RU,1584196214,93,64.57,143.2,-24.07,3.76
Waddān,33,LY,1584196214,13,29.16,16.14,79.43,5.64
Longyearbyen,75,SJ,1584196214,58,78.22,15.64,-2.2,17.22
Kaitangata,39,NZ,1584196215,84,-46.28,169.85,54.0,1.01
Manono,11,CD,1584196215,83,-7.3,27.42,79.07,2.51
Maragheh,90,IR,1584196215,81,37.39,46.24,48.2,4.7
Hasaki,75,JP,1584196215,93,35.73,140.83,37.4,10.29
Padang,100,ID,1584196215,94,-0.95,100.35,69.71,5.23
Sitka,1,US,1584196215,79,57.05,-135.33,28.4,8.05
Bambous Virieux,40,MU,1584196215,78,-20.34,57.76,80.6,5.82
Clyde River,5,CA,1584196216,68,70.47,-68.59,-20.2,6.93
Ambilobe,100,MG,1584196216,82,-13.2,49.05,82.13,13.0
Torbay,90,CA,1584196216,97,47.67,-52.73,37.99,33.33
Mahibadhoo,12,MV,1584196216,72,3.78,72.97,84.29,9.1
Busselton,99,AU,1584196216,60,-33.65,115.33,68.0,7.27
Touros,75,BR,1584196216,70,-5.2,-35.46,84.2,6.93
Presidencia Roque Sáenz Peña,62,AR,1584196216,25,-26.79,-60.44,103.01,9.89
Sibolga,29,ID,1584196216,96,1.74,98.78,73.13,3.69
Leh,78,IN,1584196217,52,34.17,77.58,16.25,4.74
Oddur,87,SO,1584196217,22,4.12,43.89,94.91,13.42
Biryukove,20,UA,1584196217,61,47.96,39.74,53.6,11.18
Lahat,100,ID,1584196217,98,-3.8,103.53,69.89,2.15
Faanui,21,PF,1584196217,79,-16.48,-151.75,82.67,14.92
Mahébourg,40,MU,1584196217,78,-20.41,57.7,80.6,5.82
Vaini,90,TO,1584196217,100,-21.2,-175.2,77.0,6.93
Niamey,73,NE,1584196218,4,13.51,2.11,98.6,4.7
Neuquén,0,AR,1584195924,34,-38.95,-68.06,64.4,6.93
Yangi Marg`ilon,0,UZ,1584196218,27,40.43,71.72,60.8,2.24
Rincon,1,US,1584196218,64,32.3,-81.24,77.0,10.29
Avarua,100,CK,1584196218,100,-21.21,-159.78,73.4,1.12
Okhotsk,100,RU,1584196218,78,59.38,143.3,4.37,8.55
Grindavik,20,IS,1584196144,74,63.84,-22.43,30.2,14.99
Souillac,40,MU,1584196218,78,-20.52,57.52,80.6,5.82
Mataura,69,NZ,1584196219,82,-46.19,168.86,54.0,1.99
Batagay,11,RU,1584196219,95,67.63,134.63,-25.87,4.32
Saint Anthony,1,US,1584196207,62,45.02,-93.22,25.0,4.7
Qaanaaq,0,GL,1584196219,61,77.48,-69.36,-19.75,6.35
Hamilton,90,US,1584196067,61,39.18,-84.53,44.01,8.05
Pangkalanbuun,100,ID,1584196219,80,-2.68,111.62,77.81,1.12
Kruisfontein,5,ZA,1584196279,77,-34.0,24.73,68.45,17.54
Codrington,83,AU,1584196280,76,-38.27,141.97,57.83,16.91
Finschhafen,100,PG,1584196280,78,-6.6,147.87,84.11,24.43
São Caetano de Odivelas,100,BR,1584196280,78,-0.75,-48.02,83.75,4.83
Bānda,0,IN,1584196280,25,25.48,80.33,76.19,7.65
Tautira,9,PF,1584196280,88,-17.73,-149.15,78.8,3.36
Offa,40,NG,1584196280,59,8.15,4.72,95.0,5.82
Severo-Kuril'sk,92,RU,1584196281,81,50.68,156.12,13.01,5.95
Caravelas,10,BR,1584196281,76,-17.71,-39.25,81.05,8.72
Jamestown,75,US,1584196281,80,42.1,-79.24,36.0,8.05
Davidson,90,US,1584196027,34,36.15,-86.78,52.0,4.7
Brewster,1,US,1584196281,41,41.4,-73.62,46.99,16.11
Palanga,40,LT,1584196281,47,55.92,21.07,33.8,11.41
Viedma,0,AR,1584196282,41,-40.81,-63.0,67.37,19.75
Port Hedland,0,AU,1584196282,83,-20.32,118.57,82.4,8.05
Aksarka,100,RU,1584196282,90,66.56,67.8,8.87,19.53
Nome,100,US,1584196282,98,64.5,-165.41,33.17,8.43
Rawson,0,AR,1584196282,57,-43.3,-65.1,62.69,13.44
Phek,16,IN,1584196282,83,25.67,94.5,58.73,1.03
Hermanus,22,ZA,1584196174,72,-34.42,19.23,79.0,4.0
Zyryanka,59,RU,1584196283,85,65.75,150.85,-18.13,10.54
Havre-St-Pierre,75,CA,1584196283,85,50.23,-63.6,23.0,5.82
Shimokizukuri,95,JP,1584196283,84,40.81,140.39,34.0,0.83
Palafrugell,75,ES,1584196283,82,41.92,3.16,66.99,9.17
Hervey Bay,90,AU,1584196283,88,-25.3,152.85,70.0,8.05
Yellowknife,75,CA,1584196202,69,62.46,-114.35,-11.99,10.29
Leningradskiy,0,RU,1584196283,83,69.38,178.42,-10.75,7.36
Sechura,39,PE,1584196284,87,-5.56,-80.82,75.11,4.81
Chokurdakh,89,RU,1584196284,98,70.63,147.92,-26.95,6.89
San Cristobal,75,VE,1584196065,94,7.77,-72.22,73.4,5.82
Te Anau,100,NZ,1584196284,70,-45.42,167.72,49.91,0.85
Ballinrobe,75,IE,1584196284,100,53.63,-9.23,51.01,19.46
Sur,90,OM,1584196140,39,22.57,59.53,71.33,6.04
Comodoro Rivadavia,0,AR,1584196285,39,-45.87,-67.5,64.4,13.87
Geraldton,75,AU,1584196265,78,-28.77,114.6,75.2,6.93
Port Elizabeth,20,ZA,1584196285,73,-33.92,25.57,71.6,18.34
Vao,100,NC,1584196285,83,-22.67,167.48,82.13,23.04
Aksu,0,CN,1584196285,21,41.12,80.26,46.85,7.65
Khatanga,69,RU,1584196285,85,71.97,102.5,19.31,11.52
Simplício Mendes,7,BR,1584196286,65,-7.85,-41.91,85.55,6.13
Puerto Madryn,0,AR,1584196161,25,-42.77,-65.04,68.99,19.86
Saldanha,45,ZA,1584196286,57,-33.01,17.94,75.2,10.29
Castro,5,BR,1584196286,32,-24.79,-50.01,81.77,3.02
Naze,90,JP,1584196286,58,28.37,129.48,59.0,23.04
Cabinda,40,AO,1584196286,74,-5.55,12.2,87.8,8.05
Abu Samrah,31,SY,1584196347,66,35.3,37.18,61.61,9.24
Baruun-Urt,99,MN,1584196347,86,46.68,113.28,20.57,2.15
Hobart,90,AU,1584196347,66,-42.88,147.33,55.4,8.05
São Francisco,98,BR,1584196347,70,-15.95,-44.86,81.41,5.86
Havøysund,40,NO,1584196347,73,71.0,24.66,23.0,27.51
Sol'vychegodsk,64,RU,1584196347,77,61.33,46.92,23.63,7.92
Boa Vista,40,BR,1584196127,49,2.82,-60.67,89.6,16.11
Nizhniy Ingash,100,RU,1584196347,93,56.2,96.53,29.75,5.95
Salalah,40,OM,1584196348,54,17.02,54.09,78.8,8.05
Östersund,49,SE,1584196348,50,63.18,14.64,30.0,8.05
Bilibino,0,RU,1584196348,88,68.05,166.44,-25.51,4.25
Santa Vitória do Palmar,2,BR,1584196348,58,-33.52,-53.37,83.75,9.8
Saint-François,40,FR,1584196348,46,46.42,3.91,54.0,5.82
Morros,100,BR,1584196348,81,-9.45,-46.3,76.73,6.02
Djibouti,90,DJ,1584196348,74,11.5,42.5,80.6,10.29
Hithadhoo,0,MV,1584196348,61,-0.6,73.08,83.75,4.43
Saint-Philippe,20,RE,1584196349,78,-21.36,55.77,80.6,23.04
Pevek,60,RU,1584196349,90,69.7,170.31,-15.43,11.12
Bara,100,NG,1584196349,8,10.37,10.73,92.21,9.15
Nikolskoye,75,RU,1584196349,50,59.7,30.79,33.01,15.66
Vila Franca do Campo,40,PT,1584196349,72,37.72,-25.43,60.8,11.41
High Level,40,CA,1584196349,74,58.52,-117.14,-27.4,3.96
Thompson,20,CA,1584196203,75,55.74,-97.86,-18.4,3.18
Aliwal North,22,ZA,1584196349,22,-30.69,26.71,79.97,12.93
Kavieng,100,PG,1584196314,74,-2.57,150.8,84.11,13.0
Dera Bugti,0,PK,1584196350,36,29.03,69.15,67.37,2.82
Narsaq,75,GL,1584196350,67,60.92,-46.05,23.0,3.36
Alausí,100,EC,1584196350,95,-2.2,-78.83,59.81,4.83
Sijunjung,100,ID,1584196350,94,-0.69,100.95,72.41,1.97
Fairbanks,1,US,1584196306,84,64.84,-147.72,12.99,1.72
Shimoda,100,JP,1584196118,93,34.67,138.95,39.99,10.87
Yumen,100,CN,1584196350,23,40.28,97.2,38.39,10.33
Beringovskiy,0,RU,1584196351,72,63.05,179.32,11.75,4.92
Aksay,20,RU,1584196255,61,47.26,39.87,53.6,11.18
Moosomin,100,CA,1584196351,94,50.13,-101.67,1.49,6.91
Parbhani,0,IN,1584196351,20,19.27,76.78,84.65,10.74
Japura,39,ID,1584196351,93,-0.32,102.35,74.93,2.44
Lodwar,64,KE,1584196351,28,3.12,35.6,96.71,12.44
Umba,63,RU,1584196351,81,66.69,34.34,19.13,10.96
Lorengau,62,PG,1584196352,77,-2.02,147.27,84.47,13.56
Omutninsk,92,RU,1584196352,96,58.67,52.19,31.73,6.55
Krasnosel'kup,100,RU,1584196352,97,65.7,82.47,32.99,24.72
Shache,36,CN,1584196352,37,38.42,77.24,48.99,1.01
Córdoba,75,AR,1584196352,73,-31.41,-64.18,73.99,21.92
Noril'sk,75,RU,1584196352,97,69.35,88.2,32.0,24.61
Mount Gambier,90,AU,1584196352,76,-37.83,140.77,53.6,5.82
Olafsvik,32,IS,1584196413,63,64.89,-23.71,27.95,13.02
Ribeira Grande,20,PT,1584196413,63,38.52,-28.7,64.4,4.7
Kaeo,3,NZ,1584196413,92,-35.1,173.78,57.0,1.01
Saint George,90,US,1584196413,93,37.1,-113.58,48.99,8.05
Ampanihy,22,MG,1584196413,61,-24.7,44.75,81.23,17.49
Arraial do Cabo,40,BR,1584196413,78,-22.97,-42.03,86.0,16.11
Puerto Ayora,40,EC,1584196265,83,-0.74,-90.35,81.0,5.82
Port Blair,21,IN,1584196298,69,11.67,92.75,82.67,7.27
Carutapera,100,BR,1584196414,81,-1.2,-46.02,79.79,12.93
Ikare,51,NG,1584196414,27,7.49,5.23,97.43,2.21
Manokwari,100,ID,1584196414,82,-0.87,134.08,72.41,2.26
Provideniya,100,RU,1584196414,77,64.38,-173.3,18.77,6.62
Haines Junction,0,CA,1584196414,64,60.75,-137.51,6.53,2.62
Harnoli,0,PK,1584196414,51,32.28,71.55,62.33,0.58
Vanimo,100,PG,1584196415,75,-2.67,141.3,82.85,10.69
Gorin,99,RU,1584196415,95,51.2,136.67,8.51,3.2
Lebu,0,CL,1584196415,32,-37.62,-73.65,65.93,10.6
Maningrida,100,AU,1584196415,65,-12.07,134.27,84.29,2.3
Paris,75,FR,1584196301,81,48.85,2.35,54.0,9.17
Nhulunbuy,40,AU,1584196415,88,-12.23,136.77,80.6,9.13
Riyadh,75,SA,1584196210,21,24.69,46.72,80.6,13.87
Bengkulu,100,ID,1584196346,92,-3.8,102.27,76.73,3.78
Cabedelo,75,BR,1584196391,74,-6.98,-34.83,84.2,9.17
Upernavik,100,GL,1584196319,93,72.79,-56.15,-8.59,3.91
Acapulco de Juárez,40,MX,1584196416,78,16.86,-99.89,78.8,3.36
Huai Thalaeng,90,TH,1584196416,49,15.0,102.65,89.6,3.36
Melo,2,UY,1584196416,27,-32.37,-54.18,99.41,10.13
Dibulla,20,CO,1584196416,51,11.27,-73.31,86.0,11.41
Nanortalik,35,GL,1584196416,69,60.14,-45.24,23.63,16.64
Butaritari,100,KI,1584196416,69,3.07,172.79,83.21,5.93
Antsohihy,100,MG,1584196417,91,-14.88,47.99,79.79,0.78
Winnemucca,75,US,1584196417,45,40.97,-117.74,44.6,12.75
Genhe,86,CN,1584196417,95,50.78,121.52,-4.99,4.9
Morwa,0,IN,1584196417,15,22.9,73.83,72.23,4.05
Três Lagoas,0,BR,1584196417,64,-20.75,-51.68,85.37,8.28
Bereda,11,ES,1584196418,58,43.27,-7.54,63.0,6.93
Altar,0,MX,1584196418,63,30.7,-111.82,58.91,3.85
Isangel,100,VU,1584196280,83,-19.55,169.27,82.31,15.64
Marsh Harbour,3,BS,1584196418,80,26.54,-77.06,74.21,12.15
Agüimes,75,ES,1584196418,56,27.91,-15.45,68.0,21.92
Lompoc,90,US,1584196418,87,34.64,-120.46,54.0,9.73
Bonito,0,BR,1584196418,42,-21.12,-56.48,89.87,7.74
Safaga,79,EG,1584196418,54,26.73,33.94,69.71,9.89
Saint Paul Harbor,1,US,1584196189,78,57.79,-152.41,17.6,5.82
Waipawa,0,NZ,1584196419,87,-41.41,175.52,57.2,12.75
Cascais,20,PT,1584196419,56,38.7,-9.42,73.0,3.36
Buala,94,SB,1584196419,85,-8.14,159.59,81.05,11.05
Millinocket,90,US,1584196419,55,45.66,-68.71,41.0,20.8
Pangnirtung,5,CA,1584196479,67,66.15,-65.71,-23.8,2.24
Prachuap Khiri Khan,63,TH,1584196479,82,11.82,99.78,81.95,8.93
Nioro,0,GM,1584196480,6,13.35,-15.75,103.91,9.98
Faya,40,SA,1584196480,68,18.39,42.45,66.2,13.87
Talnakh,75,RU,1584196480,98,69.49,88.4,32.0,24.61
Cherskiy,4,RU,1584196480,85,68.75,161.3,-17.95,11.12
Al Bardīyah,100,LY,1584196480,84,31.76,25.09,62.33,13.85
Dikson,100,RU,1584196300,92,73.51,80.55,-6.61,16.55
Sheridan,90,US,1584196430,80,44.83,-106.92,30.2,12.75
Richards Bay,12,ZA,1584196480,85,-28.78,32.04,79.79,20.2
Ostrovnoy,100,RU,1584196450,84,68.05,39.51,18.95,17.92
Tayga,100,RU,1584196481,55,56.06,85.62,33.8,22.37
Kumul,81,CN,1584196481,29,42.8,93.45,39.83,3.89
Icod de los Vinos,75,ES,1584196481,59,28.37,-16.71,69.8,10.29
La Reforma,75,MX,1584196481,82,25.08,-108.05,64.99,6.33
Udachny,90,RU,1584196481,78,66.42,112.4,12.2,8.95
Villarrica,0,PY,1584196481,26,-25.75,-56.43,101.75,6.49
Hobyo,72,SO,1584196481,72,5.35,48.53,82.31,17.11
Chifeng,62,CN,1584196481,65,42.27,118.96,27.41,10.8
Vredendal,0,ZA,1584196482,43,-31.67,18.5,75.83,18.54
Kaabong,100,UG,1584196482,46,3.48,34.15,79.61,8.79
Alofi,100,NU,1584196482,94,-19.06,-169.92,77.0,4.7
Hirado,16,JP,1584196482,46,33.36,129.55,50.0,17.22
Horta,20,PT,1584196208,63,38.53,-28.63,64.4,4.7
Chimoré,92,BO,1584196482,43,-16.98,-65.13,95.27,2.73
Prokop'yevsk,60,RU,1584196325,88,53.91,86.72,31.19,14.9
Dunedin,100,NZ,1584196220,84,-45.87,170.5,55.99,1.01
Clarence Town,90,AU,1584196483,68,-32.58,151.78,66.2,19.46
Derzhavīnsk,100,KZ,1584196483,97,51.1,66.32,33.71,17.16
Ponta do Sol,75,PT,1584196483,63,32.67,-17.1,62.6,13.87
Qaqortoq,75,GL,1584196483,67,60.72,-46.03,23.0,3.36
San Miguel de Cozumel,40,MX,1584196394,69,20.51,-86.95,80.6,9.17
San Luis,100,AR,1584196484,29,-33.3,-66.34,70.07,21.32
Kiunga,100,PG,1584196484,99,-6.12,141.29,73.31,2.44
Road Town,20,VG,1584196454,69,18.42,-64.62,82.4,4.7
Fort Nelson,20,CA,1584196282,76,58.81,-122.7,-9.4,5.82
Khovd,0,MN,1584196484,44,48.01,91.64,23.45,6.76
Grimshaw,20,CA,1584196484,74,56.18,-117.6,-16.01,2.24
Buchanan,77,LR,1584196484,74,5.88,-10.05,85.73,7.07
Bar,79,UA,1584196484,50,49.08,27.68,39.47,16.49
Conceição da Barra,0,BR,1584196484,70,-18.59,-39.73,80.87,4.16
Pasni,91,PK,1584196485,47,25.26,63.47,70.79,4.59
Sabaudia,75,IT,1584196485,82,41.3,13.03,64.99,5.82
Garoowe,0,SO,1584196485,30,8.41,48.48,86.09,6.6
Cedar City,75,US,1584196330,80,37.68,-113.06,41.0,12.75
Cidreira,0,BR,1584196359,81,-30.18,-50.21,75.29,14.2
São Francisco de Paula,0,BR,1584196306,39,-29.45,-50.58,91.99,9.17
Aykhal,90,RU,1584196385,78,66.0,111.5,12.2,8.95
Tarata,20,BO,1584196546,43,-17.62,-66.02,73.4,3.36
Taksimo,4,RU,1584196384,84,56.34,114.88,-1.39,1.77
Tuatapere,100,NZ,1584196546,82,-46.13,167.68,54.0,1.99
Berlevåg,100,NO,1584196422,59,70.86,29.09,23.81,15.55
Aktash,86,RU,1584196546,80,50.3,87.73,12.83,6.35
Carrollton,90,US,1584196546,83,32.95,-96.89,71.6,10.29
Roald,40,NO,1584196546,59,62.58,6.13,39.0,21.92
Olinda,40,BR,1584196547,58,-8.01,-34.86,87.8,8.05
Guerrero Negro,0,MX,1584196349,79,27.98,-114.06,59.99,4.94
Makīnsk,100,KZ,1584196547,95,52.63,70.42,35.15,19.55
Puerto Nariño,75,CO,1584196547,83,-3.77,-70.38,84.2,2.24
Forbes,19,AU,1584196547,68,-33.38,148.02,60.01,1.99
Lerwick,75,GB,1584196547,81,60.15,-1.15,44.6,26.4
Sakakah,75,SA,1584196547,45,29.97,40.21,64.4,23.04
Kaupanger,83,NO,1584196547,75,61.18,7.24,21.47,7.09
North Bend,90,US,1584196548,100,43.41,-124.22,39.99,9.17
Kailua,90,US,1584196548,73,21.4,-157.74,73.4,11.72
Norman Wells,75,CA,1584196548,84,65.28,-126.83,-0.4,3.36
Bako,94,ET,1584196548,75,5.78,36.57,75.83,2.98
La Ronge,75,CA,1584196548,75,55.1,-105.28,-18.4,2.24
Greifswald,1,DE,1584196548,35,54.1,13.38,45.0,4.7
Campbell River,20,CA,1584196548,32,50.02,-125.24,30.2,8.05
Panabá,0,MX,1584196549,58,21.28,-88.27,81.41,7.72
East London,20,ZA,1584196549,78,-33.02,27.91,73.4,11.41
Vicuña,75,CL,1584196549,82,-30.03,-70.71,64.4,2.24
Cockburn Town,0,TC,1584196549,74,21.46,-71.14,77.09,17.83
Rocha,53,UY,1584196549,37,-34.48,-54.33,93.11,14.0
Goderich,100,CA,1584196549,82,43.75,-81.72,33.01,11.34
Morehead,90,US,1584196549,68,37.27,-87.18,45.0,5.82
Koslan,99,RU,1584196550,85,63.46,48.9,22.37,12.39
Fort-Shevchenko,100,KZ,1584196550,61,44.51,50.26,54.05,25.43
Creel,1,MX,1584196550,66,27.75,-107.63,49.55,6.24
Gravdal,100,NO,1584196550,94,68.12,13.5,31.91,40.6
Kununurra,0,AU,1584196550,78,-15.77,128.73,80.6,5.82
Nanfeng,36,CN,1584196550,73,23.74,111.8,62.33,3.36
Kavaratti,35,IN,1584196550,74,10.57,72.64,82.13,10.47
Mednogorsk,100,RU,1584196551,98,51.41,57.59,33.71,7.05
Nishihara,40,JP,1584196551,62,26.18,127.76,59.0,23.04
Loreto,33,MX,1584196551,50,22.27,-101.97,65.03,1.43
Bilokurakyne,34,UA,1584196551,53,49.53,38.73,47.21,11.32
Nekā,100,IR,1584196551,82,36.65,53.3,59.0,4.7
Chumikan,99,RU,1584196551,81,54.72,135.31,3.29,4.05
Tiarei,19,PF,1584196432,88,-17.53,-149.33,78.8,3.36
Øksfjord,100,NO,1584196552,48,70.24,22.35,23.0,14.99
Cap Malheureux,40,MU,1584196612,78,-19.98,57.61,80.6,5.82
Whitehorse,5,CA,1584196612,83,60.72,-135.05,-7.01,2.24
Yagodnoye,100,RU,1584196612,90,62.55,149.67,-12.37,3.94
Pachino,33,IT,1584196612,37,36.72,15.09,71.6,10.29
Ngorongoro,100,TZ,1584196612,71,-3.24,35.49,73.67,2.28
Kambove,99,CD,1584196612,97,-10.88,26.6,67.73,2.28
Lodja,3,CD,1584196613,48,-3.48,23.43,88.79,2.46
Keetmanshoop,0,NA,1584196613,14,-26.58,18.13,95.0,4.7
Hambantota,20,LK,1584196613,83,6.12,81.12,82.4,6.93
Verkhoyansk,38,RU,1584196613,96,67.54,133.38,-27.13,3.36
Egvekinot,0,RU,1584196505,84,66.32,-179.17,-4.99,3.24
Moba,69,CN,1584196613,57,33.23,105.02,52.0,3.27
Cuamba,95,MZ,1584196613,73,-14.8,36.54,77.99,6.22
Avera,1,US,1584196613,77,33.19,-82.53,71.6,10.56
Ahipara,0,NZ,1584196614,77,-35.17,173.17,63.77,9.24
Sisimiut,100,GL,1584196614,90,66.94,-53.67,-5.17,5.21
Oleksandrivka,4,UA,1584196614,34,46.84,32.76,55.4,15.66
Ulaangom,75,MN,1584196614,96,49.98,92.07,0.41,2.1
La Reforma,0,MX,1584196614,70,18.1,-91.02,77.99,12.1
Lac du Bonnet,93,CA,1584196614,91,50.25,-96.06,-0.99,5.01
Jumla,100,NP,1584196614,98,29.27,82.18,31.73,3.27
Klichka,0,RU,1584196614,77,50.45,118.0,1.49,3.51
Talara,40,PE,1584196615,100,-4.58,-81.27,62.6,13.87
Paamiut,21,GL,1584196615,61,61.99,-49.67,10.67,11.03
Dakar,20,SN,1584196341,61,14.69,-17.44,93.2,16.11
Serov,78,RU,1584196324,83,59.6,60.58,31.19,8.01
Lagoa,100,PT,1584196615,74,39.05,-27.98,60.35,9.6
Esperance,75,AU,1584196615,82,-33.87,121.9,66.2,11.41
Hirara,3,JP,1584196615,68,24.8,125.28,62.15,23.53
Rome,90,US,1584196444,64,43.21,-75.46,36.0,19.46
Nyrob,99,RU,1584196385,88,60.73,56.72,31.73,9.1
Mbour,32,SN,1584196616,14,14.42,-16.96,93.2,14.99
Las Palmas,20,ES,1584196616,64,28.42,-14.01,71.6,13.87
Muravlenko,96,RU,1584196616,94,63.79,74.52,30.47,14.05
Manzanillo,1,CU,1584196616,51,20.34,-77.12,84.83,14.52
Zapolyarnyy,20,RU,1584196616,66,69.42,30.81,15.8,24.16
Meulaboh,67,ID,1584196617,65,4.14,96.13,86.09,3.18
Leshukonskoye,100,RU,1584196383,94,64.9,45.76,21.11,8.7
Ingham,1,US,1584196617,56,42.6,-84.38,33.01,6.93
Los Llanos de Aridane,40,ES,1584196435,60,28.66,-17.92,69.8,8.05
College,1,US,1584196617,84,64.86,-147.8,12.99,3.02
Wanlaweyn,100,SO,1584196617,57,2.62,44.89,86.99,22.08
Filingué,14,NE,1584196617,6,14.35,3.32,97.61,12.37
Sirte,40,LY,1584196570,15,31.21,16.59,78.89,6.73
Ende,100,ID,1584196618,77,-8.84,121.66,82.85,6.6
Alappuzha,12,IN,1584196618,79,9.49,76.33,79.25,1.68
Ripoll,75,ES,1584196618,82,42.2,2.19,66.0,9.17
Ketchikan,1,US,1584196618,49,55.34,-131.65,32.0,5.82
San Policarpo,67,PH,1584196678,77,12.18,125.51,76.91,6.15
Maumere,100,ID,1584196678,85,-8.62,122.21,76.91,5.14
Mayumba,39,GA,1584196678,72,-3.43,10.66,85.19,9.89
Iqaluit,5,CA,1584196679,60,63.75,-68.51,-25.01,14.99
Muroto-misakicho,0,JP,1584196679,79,33.28,134.15,37.67,6.53
Nosy Varika,78,MG,1584196679,90,-20.58,48.53,77.63,5.77
Świnoujście,0,PL,1584196679,35,53.91,14.25,45.0,4.7
Chui,2,UY,1584196679,58,-33.7,-53.46,83.75,9.8
Matagami,90,CA,1584196679,77,49.75,-77.63,6.8,21.92
Mabaruma,100,GY,1584196679,61,8.2,-59.78,86.81,4.43
Bose,90,IT,1584196679,76,45.46,8.01,53.01,10.29
Narok,100,KE,1584196680,68,-1.08,35.86,67.01,6.62
Saint-Pierre,20,RE,1584196680,78,-21.34,55.48,80.6,23.04
Ouro Preto do Oeste,82,BR,1584196680,74,-10.75,-62.22,86.63,3.04
Adrar,0,MR,1584196680,4,20.5,-10.07,88.97,4.18
Marzuq,25,YE,1584196680,48,14.4,46.47,72.95,12.82
Acaraú,63,BR,1584196680,67,-2.89,-40.12,87.17,8.21
Katherine,52,AU,1584196506,44,-14.47,132.27,80.6,6.93
Martapura,100,ID,1584196681,93,-3.42,114.85,75.29,1.54
Husavik,90,IS,1584196435,68,66.04,-17.34,24.8,13.87
Homer,1,US,1584196681,85,59.64,-151.55,26.01,4.7
Skjervøy,100,NO,1584196681,61,70.03,20.97,26.51,14.29
The Valley,20,AI,1584196681,74,18.22,-63.06,80.6,5.82
Honolulu,75,US,1584196501,73,21.31,-157.86,73.4,5.82
Gīdolē,94,ET,1584196681,46,5.65,37.37,79.43,4.68
Tura,100,IN,1584196682,69,25.52,90.22,68.81,7.92
Araguaína,100,BR,1584196682,76,-7.19,-48.21,83.39,4.85
Paramonga,40,PE,1584196682,85,-10.67,-77.83,73.67,9.46
Alim,3,PH,1584196682,82,9.56,122.49,78.71,6.49
Korla,100,CN,1584196682,41,41.76,86.15,31.01,2.59
Vostok,88,RU,1584196682,95,46.49,135.88,8.33,3.69
Port Lincoln,36,AU,1584196564,78,-34.73,135.87,58.01,15.9
Xudat,100,AZ,1584196683,57,41.63,48.68,57.83,3.96
Riverton,40,US,1584196683,81,40.52,-111.94,48.2,19.46
Kilindoni,65,TZ,1584196683,75,-7.91,39.67,85.01,10.11
Rio Grande,0,BR,1584196654,62,-32.03,-52.1,90.0,6.93
Padina,100,RS,1584196683,43,45.12,20.73,53.6,3.36
Same,92,TZ,1584196683,62,-4.07,37.73,82.31,13.13
Bitung,40,ID,1584196550,94,1.45,125.18,75.2,2.24
Pisco,40,PE,1584196684,30,-13.7,-76.22,75.99,5.82
Sioux Lookout,75,CA,1584196684,77,50.1,-91.92,6.8,5.82
West Bay,10,KY,1584196684,71,19.37,-81.42,82.0,5.99
Cetariu,61,RO,1584196684,52,47.13,22.02,54.0,4.7
Orán,87,AR,1584196684,59,-23.13,-64.33,95.0,2.53
Fountain,90,US,1584196684,100,38.68,-104.7,33.8,2.82
Ghanzi,39,BW,1584196744,45,-21.57,21.78,82.85,12.01
Malanje,79,AO,1584196745,90,-9.54,16.34,73.85,4.61
Constitución,89,CL,1584196745,37,-35.33,-72.42,67.55,10.22
Havelock,20,US,1584196649,33,34.88,-76.9,64.0,13.87
Boissevain,1,CA,1584196745,84,49.23,-100.06,10.0,10.29
Colares,20,PT,1584196745,56,38.8,-9.45,73.0,3.36
Laas,75,IT,1584196745,64,46.62,10.7,45.0,9.17
Laguna,90,US,1584196745,76,38.42,-121.42,53.01,11.41
Paphos,20,CY,1584196746,77,34.77,32.42,68.0,14.99
Natal,75,BR,1584196746,70,-5.79,-35.21,84.2,6.93
Bhawana,0,PK,1584196746,67,31.57,72.65,59.09,3.13
Christchurch,4,NZ,1584196685,82,-43.53,172.63,59.0,4.7
Assiut,0,EG,1584196746,41,27.18,31.18,72.05,14.92
Arman',100,RU,1584196746,96,59.7,150.17,7.07,13.15
Hong Kong,20,HK,1584196573,73,22.29,114.16,72.0,13.87
Ambunti,100,PG,1584196747,98,-4.24,142.84,73.13,0.43
Durango,100,MX,1584196587,40,24.83,-104.83,58.91,2.3
Puerto Maldonado,48,PE,1584196747,44,-12.6,-69.18,95.63,1.43
Calvinia,0,ZA,1584196747,22,-31.47,19.78,78.71,15.59
Kahului,90,US,1584196747,83,20.89,-156.47,71.6,4.7
Zykovo,100,RU,1584196747,52,55.95,93.15,41.0,4.47
Dzaoudzi,100,YT,1584196747,79,-12.79,45.27,86.0,9.17
Canchungo,0,GW,1584196747,6,12.07,-16.03,104.0,14.99
Inhambane,40,MZ,1584196706,74,-23.86,35.38,84.2,11.41
Yulara,0,AU,1584196748,22,-25.24,130.99,86.0,12.75
Bubaque,0,GW,1584196748,44,11.28,-15.83,88.61,6.42
Nueva Helvecia,90,UY,1584196748,94,-34.3,-57.23,69.8,13.87
Dickinson,90,US,1584196748,94,29.46,-95.05,73.99,4.7
Perelyub,100,RU,1584196749,98,51.87,50.37,33.53,10.18
Mount Isa,36,AU,1584196749,41,-20.73,139.5,77.0,8.05
Rovaniemi,0,FI,1584196541,41,66.5,25.72,19.4,6.93
Baharly,100,TM,1584196749,25,38.44,57.43,72.23,15.23
Bethel,1,US,1584196714,41,41.37,-73.41,48.0,16.11
‘Ewa Beach,20,US,1584196749,73,21.32,-158.01,73.4,3.89
Portland,90,US,1584196679,86,45.52,-122.68,34.0,6.93
Badajoz,10,ES,1584196750,52,38.67,-6.17,73.99,4.7
Effingham County,1,US,1584196750,64,32.37,-81.33,77.0,10.29
Prince Albert,90,CA,1584196741,69,53.2,-105.77,-7.6,6.89
Matamoros,40,MX,1584196454,35,25.53,-103.25,69.8,1.52
Turan,20,VN,1584196750,83,16.07,108.22,78.8,1.01
Nanma,0,CN,1584196750,29,36.18,118.16,51.01,3.74
Esteio,0,BR,1584196750,45,-29.86,-51.18,96.01,5.82
Aldan,93,RU,1584196751,94,58.6,125.39,-16.15,9.78
Glace Bay,75,CA,1584196668,60,46.2,-59.96,43.0,19.46
Nadym,99,RU,1584196751,97,65.53,72.52,32.63,14.76
Gävle,0,SE,1584196811,28,60.67,17.14,39.99,8.01
Progreso,5,MX,1584196811,78,21.28,-89.67,80.01,16.11
Soyo,99,AO,1584196811,67,-6.13,12.37,87.89,8.72
Vreden,75,DE,1584196811,57,52.04,6.83,55.99,13.87
San Patricio,5,MX,1584196812,78,19.22,-104.7,77.0,6.24
Tyrma,0,RU,1584196812,89,50.08,132.17,-0.85,1.81
Samarai,100,PG,1584196812,85,-10.62,150.67,77.09,5.48
Lichuan,3,CN,1584196812,87,30.3,108.85,45.77,3.02
Lüderitz,0,NA,1584196812,87,-26.65,15.16,65.03,21.74
Tarakan,0,ID,1584196812,75,3.3,117.63,81.05,6.76
Łomża,92,PL,1584196812,42,53.18,22.06,33.89,17.2
Bandar,0,ID,1584196813,94,2.05,99.75,75.65,2.3
Banda Aceh,99,ID,1584196813,89,5.56,95.32,76.73,3.67
Thabazimbi,100,ZA,1584196813,29,-24.59,27.41,84.47,2.01
Ōdachō-ōda,12,JP,1584196813,79,35.18,132.5,33.35,2.8
Russell,1,US,1584196813,93,32.35,-85.2,70.0,4.81
Hebi,0,CN,1584196813,21,35.9,114.19,49.55,6.78
Imbituba,0,BR,1584196813,62,-28.24,-48.67,84.2,13.87
Karangampel,100,ID,1584196813,89,-6.46,108.45,78.71,7.4
Maryville,75,US,1584196814,37,35.76,-83.97,55.4,6.49
Jalu,0,LY,1584196814,21,29.03,21.55,76.73,8.95
Arlit,0,NE,1584196814,6,18.74,7.39,89.87,2.98
Bronkhorstspruit,4,ZA,1584196814,39,-25.81,28.74,84.2,6.93
Verkhovazh'ye,50,RU,1584196814,74,60.75,42.05,18.95,6.15
Oodweyne,100,SO,1584196814,32,9.41,45.06,81.23,4.14
Nouadhibou,0,MR,1584196814,37,20.93,-17.03,82.4,10.29
Mayo,1,US,1584196760,27,38.89,-76.51,52.0,5.82
Tacoronte,75,ES,1584196815,63,28.48,-16.41,71.01,11.41
Ilulissat,90,GL,1584196815,77,69.22,-51.1,5.0,13.87
Rivera,0,UY,1584196815,23,-30.91,-55.55,100.67,7.87
Turukhansk,100,RU,1584196815,95,65.82,87.98,29.57,15.57
Vardø,20,NO,1584196815,78,70.37,31.11,17.6,13.87
Novellara,75,IT,1584196815,50,44.84,10.73,59.0,8.05
Hualmay,54,PE,1584196816,59,-11.1,-77.61,79.43,7.83
Imeni Zhelyabova,100,RU,1584196816,41,58.95,36.6,25.79,11.34
Santa Cruz,75,MA,1584196663,53,30.42,-9.6,71.6,13.87
Catalina,1,US,1584196816,93,32.51,-110.92,53.01,4.65
Ca Mau,84,VN,1584196816,85,9.18,105.15,76.37,8.77
Teahupoo,36,PF,1584196816,88,-17.83,-149.27,78.8,3.36
Chake Chake,70,TZ,1584196817,77,-5.25,39.77,85.01,15.23
Awjilah,0,LY,1584196817,21,29.11,21.29,76.73,8.95
Farafangana,74,MG,1584196817,80,-22.82,47.83,79.79,18.9
Naviraí,0,BR,1584196817,41,-23.07,-54.19,89.15,5.57
Okha,88,RU,1584196817,90,53.57,142.95,-1.39,4.16
Houlton,90,US,1584196818,55,46.13,-67.84,35.6,13.87
Sorong,100,ID,1584196818,98,-0.88,131.25,72.95,1.7
Gombong,100,ID,1584196818,86,-7.61,109.51,78.35,1.05
Departamento de Maldonado,90,UY,1584196878,78,-34.67,-54.92,75.2,6.93
Vila,0,PT,1584196878,48,42.03,-8.16,70.0,3.33
Henties Bay,0,NA,1584196878,87,-22.12,14.28,66.99,7.0
Fare,0,PF,1584196878,78,-16.7,-151.02,82.67,16.44
Sayyan,41,YE,1584196878,43,15.17,44.32,67.01,10.33
Kalengwa,75,ZM,1584196879,71,-13.47,25.0,77.81,2.95
Bathsheba,75,BB,1584196879,74,13.22,-59.52,80.6,20.8
Marawi,4,PH,1584196879,83,8.0,124.29,77.0,5.01
Ulaanbaatar,0,MN,1584196879,68,47.91,106.88,24.8,4.47
Edd,92,ER,1584196829,70,13.93,41.69,80.33,15.12
Pontes e Lacerda,100,BR,1584196879,52,-15.23,-59.34,89.87,4.94
Alyangula,98,AU,1584196879,94,-13.85,136.42,77.0,5.82
Estación Coahuila,1,MX,1584196840,87,32.19,-115.0,55.4,2.55
Georgiyevskoye,98,RU,1584196880,83,58.73,45.02,31.19,4.52
Yenagoa,0,NG,1584196880,33,4.92,6.26,97.79,2.91
Mollendo,100,PE,1584196880,82,-17.02,-72.01,70.79,5.73
Tete,40,MZ,1584196880,41,-16.16,33.59,96.8,3.49
Cullinan,0,ZA,1584196880,39,-25.67,28.52,84.2,6.93
Plast,100,RU,1584196881,83,54.37,60.81,34.61,9.8
Manado,40,ID,1584196881,94,1.49,124.85,75.2,2.24
Strezhevoy,90,RU,1584196769,99,60.73,77.59,32.0,8.95
Arrondissement de Perpignan,3,FR,1584196881,39,42.75,2.75,66.0,16.11
Gigmoto,100,PH,1584196881,69,13.78,124.39,80.87,8.48
Garrel,20,DE,1584196881,57,52.95,8.02,52.0,12.75
Prabumulih,80,ID,1584196594,94,-3.45,104.25,76.55,4.68
Kolvereid,100,NO,1584196882,70,64.87,11.6,33.17,21.23
Honningsvåg,100,NO,1584196882,75,70.98,25.97,23.27,16.55
Fortuna,90,US,1584196811,100,40.6,-124.16,42.8,5.82
Santa Cruz Cabrália,40,BR,1584196882,65,-16.28,-39.02,82.4,8.05
Samaná,75,DO,1584196882,83,19.21,-69.34,78.8,4.7
Salinópolis,100,BR,1584196882,80,-0.61,-47.36,80.51,15.43
Erenhot,0,CN,1584196882,53,43.65,111.98,33.71,10.89
Aswān,0,EG,1584196882,19,24.09,32.91,79.61,15.9
Chapais,90,CA,1584196792,85,49.78,-74.85,12.2,19.46
São João da Barra,40,BR,1584196883,70,-21.64,-41.05,86.0,8.55
Tatvan,63,TR,1584196883,93,38.51,42.28,37.67,2.24
Northam,75,GB,1584196883,76,51.03,-4.22,53.01,12.75
Sémbé,68,CG,1584196883,31,1.65,14.58,93.29,2.75
Lüleburgaz,75,TR,1584196647,87,41.4,27.36,51.01,19.46
Key Largo,40,US,1584196884,74,25.09,-80.45,80.01,13.87
Ambon City,100,ID,1584196884,82,-3.7,128.18,79.97,12.08
Shumyachi,100,RU,1584196884,83,53.86,32.42,28.85,26.31
Surat,0,IN,1584196884,41,21.17,72.83,78.8,6.93
Yanam,20,IN,1584196884,55,16.73,82.22,86.0,9.17
Santa Rosa,20,PH,1584196884,74,14.31,121.11,82.99,4.7
Pacific Grove,90,US,1584196944,93,36.62,-121.92,53.01,6.93
Taoudenni,0,ML,1584196945,5,22.68,-3.98,94.91,1.34
Syracuse,67,IT,1584196854,77,37.09,15.28,71.6,11.41
Celestún,0,MX,1584196945,80,20.87,-90.4,75.65,14.09
Buenos Aires,75,AR,1584196936,94,-34.61,-58.38,69.8,11.41
Guaíra,0,BR,1584196733,66,-20.32,-48.31,83.03,6.82
Stege,0,DK,1584196945,60,54.99,12.28,43.0,13.87
Hargeisa,16,SO,1584196945,70,9.56,44.06,72.77,18.95
Dryden,1,CA,1584196946,84,49.78,-92.75,6.8,5.82
Taguatinga,100,BR,1584196946,71,-12.39,-46.57,82.85,2.95
Sokolo,0,ML,1584196946,5,14.73,-6.12,101.93,5.39
Sinnamary,55,GF,1584196946,75,5.38,-52.95,80.33,13.27
Umluj,0,SA,1584196800,40,25.02,37.27,67.91,0.94
Mackay,24,AU,1584196946,83,-21.15,149.2,79.0,6.93
Bundaberg,90,AU,1584196946,88,-24.85,152.35,70.0,8.05
