City,Cloudiness,Country,Date,Humidity,Lat,Lng,Max Temp,Wind Speed
Vardø,40,NO,1588185189,86,70.37,31.11,28.4,11.41
Albany,99,US,1588184959,53,42.6,-73.97,60.01,3.0
Ushuaia,99,AR,1588184915,70,-54.8,-68.3,46.4,19.46
Kolvereid,10,NO,1588185190,45,64.87,11.6,48.2,9.17
Faya,87,SA,1588185190,68,18.39,42.45,69.8,4.7
Lichuan,100,CN,1588185190,68,30.3,108.85,58.28,3.33
Alice Springs,5,AU,1588185190,35,-23.7,133.88,57.2,14.99
Los Corrales de Buelna,100,ES,1588185190,99,43.26,-4.07,57.99,1.99
Carnarvon,63,AU,1588185190,32,-24.87,113.63,66.2,9.17
Gushikawa,1,JP,1588185191,100,26.35,127.87,68.0,4.7
Adrar,8,MR,1588185191,12,20.5,-10.07,95.79,17.69
Arraial do Cabo,0,BR,1588185191,61,-22.97,-42.03,80.6,16.11
Hobart,90,AU,1588185122,93,-42.88,147.33,57.0,5.82
Raisen,0,IN,1588185191,45,23.33,77.8,84.2,2.24
Ilhabela,2,BR,1588185191,64,-23.78,-45.36,77.41,5.35
Saskylakh,99,RU,1588185191,96,71.92,114.08,15.67,6.55
Port Alfred,0,ZA,1588185191,86,-33.59,26.89,59.0,5.01
Bluff,100,NZ,1588185192,77,-46.6,168.33,49.86,13.31
Noumea,14,NC,1588185003,88,-22.28,166.46,75.99,11.45
Cherskiy,100,RU,1588185192,98,68.75,161.3,21.81,5.44
Mehamn,0,NO,1588185192,49,71.04,27.85,26.6,8.05
Hauterive,75,FR,1588185192,55,46.09,3.45,60.8,10.29
Vaini,75,TO,1588185192,78,-21.2,-175.2,75.2,10.29
Kapaa,75,US,1588185192,78,22.08,-159.32,75.99,20.8
Port Elizabeth,0,ZA,1588185022,80,-33.92,25.57,60.06,8.1
Giresun Province,100,TR,1588185193,48,40.5,38.5,34.81,5.91
Mozelos,75,PT,1588185193,100,41.87,-8.4,55.0,17.22
Mataura,100,NZ,1588185193,78,-46.19,168.86,41.25,3.47
Jamestown,1,US,1588185193,52,42.1,-79.24,64.4,17.22
Yerbogachën,100,RU,1588185193,89,61.28,108.01,30.18,5.73
George Town,40,MY,1588185193,100,5.41,100.34,80.6,4.7
Reconquista,0,AR,1588185194,30,-29.15,-59.65,77.2,6.33
Lahat,99,ID,1588185194,89,-3.8,103.53,73.67,1.79
Desbiens,75,CA,1588184977,43,48.42,-71.95,51.8,6.93
Vila,100,PT,1588185194,87,42.03,-8.16,52.0,11.01
Bathsheba,40,BB,1588185194,62,13.22,-59.52,86.0,19.46
Sabha,98,LY,1588185194,11,27.04,14.43,87.53,3.78
Nikolskoye,75,RU,1588185195,80,59.7,30.79,35.6,8.95
Henties Bay,0,NA,1588185195,72,-22.12,14.28,66.02,4.7
Puerto Escondido,20,MX,1588185195,70,15.85,-97.07,84.2,11.41
Bambous Virieux,75,MU,1588185195,78,-20.34,57.76,75.2,13.87
Cidreira,100,BR,1588185196,75,-30.18,-50.21,72.88,6.53
Codrington,44,AU,1588185196,86,-38.27,141.97,48.27,10.16
Bilma,0,NE,1588185196,9,18.69,12.92,93.78,3.53
Tuktoyaktuk,5,CA,1588185196,83,69.45,-133.04,-5.8,9.17
Vyartsilya,36,RU,1588185196,94,62.18,30.69,30.52,7.47
Rikitea,2,PF,1588185196,81,-23.12,-134.97,79.47,14.47
Linhares,93,BR,1588185196,88,-19.39,-40.07,72.86,4.68
Mount Isa,6,AU,1588185042,53,-20.73,139.5,71.6,10.29
Puerto Ayora,20,EC,1588185066,58,-0.74,-90.35,87.8,16.11
Leshukonskoye,99,RU,1588185257,98,64.9,45.76,31.26,7.09
Ahipara,34,NZ,1588185257,82,-35.17,173.17,56.86,6.96
Chojnice,100,PL,1588185257,78,53.7,17.56,42.01,1.99
Narsaq,5,GL,1588185257,23,60.92,-46.05,50.0,6.93
Saint-Philippe,40,RE,1588185257,64,-21.36,55.77,73.4,19.46
Atuona,20,PF,1588185258,76,-9.8,-139.03,81.64,17.52
Castro,29,BR,1588185201,38,-24.79,-50.01,73.87,5.1
Sittwe,0,MM,1588185258,75,20.15,92.9,80.82,4.5
Havre-St-Pierre,1,CA,1588185258,52,50.23,-63.6,46.4,8.05
Bandiagara,0,ML,1588185258,13,14.35,-3.61,109.4,6.93
Bonoua,20,CI,1588185258,79,5.27,-3.6,86.0,10.29
Tiksi,100,RU,1588185258,96,71.69,128.87,14.59,8.59
Hilo,90,US,1588185259,65,19.73,-155.09,77.0,9.17
Asău,100,RO,1588185259,69,46.43,26.4,57.0,4.85
Mar del Plata,40,AR,1588185053,63,-38.0,-57.56,64.99,23.04
Paracuru,100,BR,1588185259,69,-3.41,-39.03,84.0,21.99
Acurenam,1,GQ,1588185260,80,1.03,10.65,71.37,2.75
Upernavik,79,GL,1588185260,81,72.79,-56.15,21.43,6.42
Berdigestyakh,0,RU,1588185184,89,62.1,126.7,21.15,11.81
Hermanus,99,ZA,1588185260,72,-34.42,19.23,63.25,1.66
Kavaratti,100,IN,1588185260,67,10.57,72.64,85.57,8.19
Fortuna,20,US,1588185260,87,40.6,-124.16,63.0,5.82
Busselton,0,AU,1588185261,44,-33.65,115.33,51.01,12.48
Mahébourg,75,MU,1588185261,78,-20.41,57.7,75.2,13.87
Marawi,100,PH,1588185261,82,8.0,124.29,77.0,5.01
Departamento de Maldonado,20,UY,1588185153,52,-34.67,-54.92,69.01,19.08
Saldanha,0,ZA,1588185262,48,-33.01,17.94,66.2,6.93
Angoche,0,MZ,1588185262,73,-16.23,39.91,76.77,4.18
Maura,57,NO,1588185262,41,60.25,11.02,43.0,4.7
Saint George,1,US,1588185217,22,37.1,-113.58,87.01,6.93
Hasaki,20,JP,1588185263,87,35.73,140.83,52.0,5.82
Barrow,90,US,1588185263,100,71.29,-156.79,-11.2,5.82
Lebu,0,CL,1588185263,71,-37.62,-73.65,58.21,8.34
Magadan,71,RU,1588185263,96,59.57,150.8,25.29,4.29
Ostrovnoy,100,RU,1588185263,95,68.05,39.51,27.23,12.24
Ponta Delgada,40,PT,1588185263,82,37.73,-25.67,64.4,11.41
Broken Hill,40,AU,1588185080,93,-31.95,141.43,46.4,10.29
Iqaluit,90,CA,1588185264,92,63.75,-68.51,28.4,13.87
Punta Arenas,75,CL,1588185264,81,-53.15,-70.92,44.6,8.05
Hofn,20,IS,1588185264,61,64.25,-15.21,48.2,13.87
Ereymentau,33,KZ,1588185264,62,51.62,73.1,52.86,10.45
Imeni Poliny Osipenko,100,RU,1588185264,74,52.42,136.49,44.29,5.19
Kruisfontein,0,ZA,1588185265,67,-34.0,24.73,55.65,2.28
Bengkulu,100,ID,1588185265,82,-3.8,102.27,77.36,4.0
Souillac,75,MU,1588185325,78,-20.52,57.52,75.2,13.87
Youkounkoun,13,GN,1588185325,20,12.53,-13.13,100.56,2.55
Norman Wells,90,CA,1588185326,85,65.28,-126.83,21.2,19.46
Otukpo,98,NG,1588185326,67,7.19,8.13,83.62,5.95
Mayna,100,RU,1588185326,63,54.11,47.62,52.7,22.17
Bredasdorp,0,ZA,1588185326,62,-34.53,20.04,57.2,3.36
Maniitsoq,0,GL,1588185204,82,65.42,-52.9,34.97,9.08
Agüimes,20,ES,1588185327,60,27.91,-15.45,69.8,24.16
Laguna,75,US,1588185327,56,38.42,-121.42,73.0,10.29
Lüderitz,0,NA,1588185327,72,-26.65,15.16,64.4,4.7
Umba,0,RU,1588185327,95,66.69,34.34,27.05,8.32
Kununurra,39,AU,1588185328,83,-15.77,128.73,69.8,2.95
Roebourne,0,AU,1588185041,29,-20.78,117.13,79.45,19.82
Sayyan,100,YE,1588185328,34,15.17,44.32,63.01,2.86
Ouahigouya,89,BF,1588185328,13,13.58,-2.42,103.87,4.52
Thompson,75,CA,1588185328,39,55.74,-97.86,48.2,6.93
Padang,100,ID,1588185086,86,-0.95,100.35,77.45,4.27
Butaritari,100,KI,1588185328,81,3.07,172.79,82.15,10.71
Port Keats,0,AU,1588185329,67,-14.25,129.55,81.21,4.56
Los Llanos de Aridane,40,ES,1588185329,64,28.66,-17.92,69.8,11.41
Acaraú,100,BR,1588185329,80,-2.89,-40.12,82.54,9.69
East London,12,ZA,1588185329,67,-33.02,27.91,63.75,5.82
Øksfjord,0,NO,1588185329,55,70.24,22.35,33.8,11.41
Provideniya,99,RU,1588185329,94,64.38,-173.3,24.19,2.71
Toropets,1,RU,1588185185,86,56.5,31.64,33.69,5.03
Cape Town,4,ZA,1588185149,59,-33.93,18.42,60.8,3.36
Douentza,6,ML,1588185330,11,15.0,-2.95,96.87,6.98
Hokitika,95,NZ,1588185330,71,-42.72,170.97,46.85,4.03
Qaqortoq,5,GL,1588185330,23,60.72,-46.03,50.0,6.93
Yellowknife,75,CA,1588185301,34,62.46,-114.35,51.8,6.93
Kavieng,100,PG,1588185331,79,-2.57,150.8,81.77,2.64
Ormond Beach,40,US,1588185213,100,29.29,-81.06,82.99,17.22
Banda Aceh,94,ID,1588185331,77,5.56,95.32,81.5,5.19
Zapolyarnyy,40,RU,1588185331,86,69.42,30.81,30.2,16.11
Leningradskiy,37,RU,1588185331,90,69.38,178.42,17.64,3.53
Alta Floresta,40,BR,1588185331,49,-9.88,-56.09,93.2,10.29
Mae Sai,40,TH,1588185331,100,20.43,99.88,71.6,1.12
New Norfolk,100,AU,1588185331,93,-42.78,147.06,54.0,1.01
Cheremshan,100,RU,1588185332,64,54.67,51.5,49.1,20.13
Yinchuan,0,CN,1588185032,6,38.47,106.27,66.0,3.0
Carutapera,100,BR,1588185332,76,-1.2,-46.02,83.14,8.66
Althofen,75,AT,1588185332,93,46.88,14.47,48.99,5.82
Chui,0,UY,1588185332,51,-33.7,-53.46,67.84,16.28
Caravelas,0,BR,1588185332,72,-17.71,-39.25,77.97,6.31
Tasiilaq,20,GL,1588185393,60,65.61,-37.64,39.2,21.92
Saint Paul Harbor,1,US,1588185393,52,57.79,-152.41,44.6,2.28
Kyabé,100,TD,1588185393,24,9.45,18.94,91.65,2.64
Oktyabr'skoye,0,RU,1588185393,54,43.06,44.74,53.6,11.18
Eyl,98,SO,1588185394,75,7.98,49.82,85.39,11.32
Kamenka,78,RU,1588185394,44,51.32,42.77,57.99,8.01
Vao,3,NC,1588185394,78,-22.67,167.48,75.58,24.72
Beringovskiy,97,RU,1588185394,97,63.05,179.32,24.6,2.62
Bulungu,0,CD,1588185394,76,-4.55,18.6,73.99,1.16
Aksarayskiy,0,RU,1588185394,50,46.79,48.01,57.2,11.18
Baykit,100,RU,1588185125,80,61.67,96.37,38.73,4.99
Dikson,100,RU,1588185395,94,73.51,80.55,19.92,4.52
Iracoubo,100,GF,1588185395,93,5.48,-53.2,75.45,13.2
Severo-Kuril'sk,81,RU,1588185395,92,50.68,156.12,30.52,10.67
Jiuquan,0,CN,1588185395,12,39.74,98.52,61.81,5.46
San Patricio,0,MX,1588185395,33,19.22,-104.7,87.42,7.2
Vestmannaeyjar,0,IS,1588185395,66,63.44,-20.27,48.2,16.11
Wawa,13,NG,1588185396,37,9.9,4.42,93.43,8.28
Wasilla,1,US,1588185396,52,61.58,-149.44,44.6,2.77
Maningrida,100,AU,1588185396,83,-12.07,134.27,73.6,6.51
Avarua,20,CK,1588185396,83,-21.21,-159.78,75.2,8.05
Linjiang,76,CN,1588185396,58,41.81,126.91,46.96,3.31
Columbus,90,US,1588185254,37,39.96,-83.0,69.8,23.04
Nizhniy Odes,77,RU,1588185307,93,63.64,54.86,31.23,6.98
Fare,100,PF,1588185396,74,-16.7,-151.02,82.76,5.32
Cabo San Lucas,5,MX,1588185365,39,22.89,-109.91,86.0,4.7
Soyo,100,AO,1588185397,87,-6.13,12.37,79.25,9.19
Kota Bharu,20,MY,1588185397,100,6.13,102.24,77.0,3.36
Faanui,98,PF,1588185397,72,-16.48,-151.75,81.95,3.11
Te Anau,100,NZ,1588185397,69,-45.42,167.72,49.28,6.89
Owando,3,CG,1588185398,72,-0.48,15.9,77.77,3.38
Torbay,75,CA,1588185319,74,47.67,-52.73,36.0,21.92
Yangcun,0,CN,1588185398,53,39.36,117.06,71.6,2.24
Grindavik,0,IS,1588185398,73,63.84,-22.43,44.6,19.46
Ancud,75,CL,1588185398,87,-41.87,-73.82,59.0,8.05
Puducherry,89,IN,1588185398,77,11.93,79.83,85.06,10.18
Al Bardīyah,0,LY,1588185399,74,31.76,25.09,64.62,4.54
San Vicente,100,AR,1588185399,40,-26.62,-54.13,81.12,2.1
Berlevåg,75,NO,1588185399,73,70.86,29.09,26.6,3.36
Mabaruma,55,GY,1588185399,57,8.2,-59.78,86.0,8.9
Anloga,20,GH,1588185399,83,5.79,0.9,82.4,2.24
Chernyshevskiy,7,RU,1588185400,93,63.01,112.47,19.83,1.57
Nanortalik,0,GL,1588185400,79,60.14,-45.24,37.2,8.01
Lorengau,99,PG,1588185400,77,-2.02,147.27,81.09,3.83
Urucará,100,BR,1588185400,55,-2.54,-57.76,90.45,4.27
Zhezkazgan,59,KZ,1588185460,68,47.8,67.71,52.05,10.8
Norrköping,100,SE,1588185460,56,58.59,16.18,42.01,5.82
Bulawayo,47,ZW,1588185461,44,-20.15,28.58,62.91,2.98
Russell,40,US,1588185461,78,32.35,-85.2,73.4,11.41
Talnakh,75,RU,1588185461,85,69.49,88.4,15.8,15.66
Joigny,100,FR,1588185461,85,47.98,3.4,54.0,1.01
Kodinsk,100,RU,1588185461,85,58.69,99.18,48.16,7.72
Chokurdakh,87,RU,1588185462,93,70.63,147.92,9.73,4.09
Charters Towers,18,AU,1588185231,86,-20.1,146.27,66.79,7.27
Mugumu,69,TZ,1588185462,63,-1.85,34.7,61.09,1.12
Dingle,100,PH,1588185462,83,11.0,122.67,78.03,7.18
Daru,100,PG,1588185462,91,-9.08,143.21,78.89,14.23
Tyukhtet,100,RU,1588185463,65,56.54,89.3,56.62,23.35
Iralaya,40,HN,1588185463,63,15.0,-83.23,91.4,9.17
Grand-Santi,100,GF,1588185463,84,4.25,-54.38,78.82,5.3
Port Blair,67,IN,1588185427,75,11.67,92.75,83.48,2.48
Loukhi,85,RU,1588185463,96,66.08,33.04,23.81,4.72
Olafsvik,78,IS,1588185464,73,64.89,-23.71,42.71,13.44
Sabang,94,ID,1588185464,72,5.89,95.32,84.0,4.54
Airai,100,TL,1588185464,67,-8.93,125.41,56.37,2.13
Chapais,20,CA,1588185464,32,49.78,-74.85,51.8,14.99
Phuket,20,TH,1588185464,94,8.0,98.25,78.8,1.12
Coburg,0,DE,1588185429,64,50.27,10.97,57.99,5.08
Hambantota,81,LK,1588185464,83,6.12,81.12,80.47,5.53
Kaitangata,92,NZ,1588185465,61,-46.28,169.85,51.01,7.07
Hithadhoo,8,MV,1588185465,74,-0.6,73.08,85.1,10.92
Jacareacanga,20,BR,1588185465,70,-6.22,-57.75,89.6,4.7
El Silencio,87,VE,1588185456,54,10.5,-66.92,82.99,5.99
Mogadishu,100,SO,1588185465,76,2.04,45.34,84.47,13.67
Madang,97,PG,1588185465,87,-5.22,145.8,76.87,4.81
Aktobe,0,KZ,1588185416,60,50.28,57.21,39.2,4.47
Pacific Grove,90,US,1588185423,77,36.62,-121.92,62.01,9.17
Broome,75,US,1588185466,54,42.25,-75.83,62.01,23.04
Qaanaaq,100,GL,1588185466,86,77.48,-69.36,15.44,12.86
Ribeira Grande,75,PT,1588185466,88,38.52,-28.7,62.6,13.87
São Filipe,21,CV,1588185466,63,14.9,-24.5,77.22,14.05
Port Macquarie,100,AU,1588185466,95,-31.43,152.92,62.01,13.56
Peniche,100,PT,1588185183,79,39.36,-9.38,61.0,11.99
Kahului,20,US,1588185463,61,20.89,-156.47,77.0,16.11
Conde,40,BR,1588185467,74,-7.26,-34.91,84.2,11.41
Muyezerskiy,90,RU,1588185467,94,63.93,31.65,26.26,8.01
Bougouni,100,ML,1588185467,19,11.42,-7.48,99.55,2.35
Sistranda,40,NO,1588185467,46,63.73,8.83,50.0,2.24
College,40,US,1588185467,47,64.86,-147.8,35.6,14.99
Korla,0,CN,1588185468,13,41.76,86.15,75.56,9.46
Zabaykal'sk,0,RU,1588185468,44,49.63,117.32,49.42,5.79
Calama,0,CL,1588185247,6,-22.47,-68.93,78.8,16.11
Chumikan,54,RU,1588185528,96,54.72,135.31,32.49,2.68
Tari,91,NG,1588185528,29,12.41,4.49,96.37,16.69
Ponta do Sol,40,PT,1588185529,68,32.67,-17.1,68.0,4.7
Kargasok,100,RU,1588185529,92,59.06,80.86,46.83,4.43
Fort Nelson,40,CA,1588185529,33,58.81,-122.7,57.2,11.41
Matara,100,LK,1588185529,89,5.95,80.54,78.75,3.2
Develi,75,TR,1588185529,67,38.39,35.49,57.2,4.7
Nísia Floresta,75,BR,1588185529,66,-6.09,-35.21,84.2,5.82
Pringsewu,100,ID,1588185328,91,-5.36,104.97,74.37,0.94
Rosarito,90,MX,1588185500,88,32.33,-117.03,66.99,5.3
The Valley,20,AI,1588185530,61,18.22,-63.06,86.0,14.99
Lufilufi,100,WS,1588185530,76,-13.87,-171.6,84.2,18.72
Zaporizhia,0,UA,1588185530,50,47.82,35.18,53.01,9.84
Byron Bay,100,AU,1588185390,100,-28.65,153.62,64.0,9.93
Farafangana,71,MG,1588185530,81,-22.82,47.83,73.49,9.6
Ciucea,75,RO,1588185530,93,46.95,22.82,54.0,2.24
Guangyuan,100,CN,1588185530,52,32.44,105.82,64.67,3.18
Sānchor,0,IN,1588185531,27,24.76,71.77,87.19,10.94
Pevek,33,RU,1588185531,92,69.7,170.31,15.73,10.54
Acapulco de Juárez,5,MX,1588185531,78,16.86,-99.89,82.4,10.29
Clyde River,75,CA,1588185531,57,70.47,-68.59,23.0,2.24
New Port Richey,0,US,1588185486,49,28.24,-82.72,86.0,5.01
Takoradze,65,GH,1588185531,78,4.88,-1.76,81.46,8.52
Uyemskiy,20,RU,1588185532,74,64.47,40.85,33.8,4.47
Sitka,90,US,1588185420,81,57.05,-135.33,42.8,11.41
Khatanga,62,RU,1588185532,95,71.97,102.5,8.28,8.77
Cervo,100,ES,1588185532,1,43.67,-7.41,55.99,8.99
Hong Kong,46,HK,1588185266,60,22.29,114.16,73.0,7.7
Samarai,49,PG,1588185532,81,-10.62,150.67,81.91,9.06
Tura,0,IN,1588185533,73,25.52,90.22,68.92,4.03
Naifaru,64,MV,1588185533,72,5.44,73.37,85.3,4.47
Ilo,75,PE,1588185533,83,-17.64,-71.34,69.8,3.36
Haines Junction,95,CA,1588185533,57,60.75,-137.51,42.64,2.46
Biak,92,ID,1588185534,78,-0.91,122.88,77.54,1.74
Touros,75,BR,1588185534,78,-5.2,-35.46,82.4,11.41
Kloulklubed,90,PW,1588185534,94,7.04,134.26,77.0,6.93
Camacha,20,PT,1588185534,68,33.08,-16.33,68.0,8.05
Watertown,1,US,1588185339,50,42.37,-71.18,57.99,13.87
Manama,0,BH,1588185534,74,26.22,50.58,82.4,16.11
Geraldton,100,AU,1588185534,36,-28.77,114.6,60.8,11.41
Barinas,88,VE,1588185534,43,8.62,-70.21,92.16,7.74
Bariloche,25,AR,1588185535,31,-41.15,-71.31,55.4,6.93
Dobroye,100,RU,1588185535,69,52.87,39.81,64.4,15.66
Assiut,0,EG,1588185535,29,27.18,31.18,77.0,16.11
Åmot,100,NO,1588185535,51,59.57,7.99,45.0,1.99
Abancay,33,PE,1588185535,27,-13.63,-72.88,69.37,6.38
Beloha,39,MG,1588185536,70,-25.17,45.05,74.16,6.46
Brae,61,GB,1588185536,75,60.4,-1.35,46.4,11.41
Tubmanburg,100,LR,1588185596,83,6.87,-10.82,80.2,3.6
Bailén,100,ES,1588185596,43,38.1,-3.78,69.01,9.17
Araouane,0,ML,1588185596,10,18.9,-3.53,96.58,7.9
Dinghaicun,100,CN,1588185596,88,26.28,119.79,66.2,2.24
Klaksvík,78,FO,1588185596,60,62.23,-6.59,41.0,3.36
Hisor,90,TJ,1588185597,55,38.52,68.55,64.4,6.71
Honningsvåg,0,NO,1588185597,49,70.98,25.97,26.6,8.05
Thanh Hoa,18,VN,1588185597,92,19.8,105.77,70.2,1.9
Doboj,40,BA,1588185563,82,44.73,18.09,59.0,3.36
Mayo,1,US,1588185597,68,38.89,-76.51,73.4,5.82
La Baule-Escoublac,100,FR,1588185598,93,47.29,-2.36,54.0,27.51
Awjilah,0,LY,1588185598,27,29.11,21.29,80.91,9.28
Pangnirtung,75,CA,1588185598,62,66.15,-65.71,24.8,3.36
Bintulu,75,MY,1588185485,100,3.17,113.03,78.8,2.24
Khani,0,GE,1588185598,45,41.96,42.96,64.4,23.04
San Anselmo,1,US,1588185535,63,37.97,-122.56,64.99,8.05
San Luis,0,AR,1588185347,28,-33.3,-66.34,71.64,11.97
Aljezur,30,PT,1588185304,93,37.32,-8.8,64.0,8.01
Asekeyevo,100,RU,1588185599,63,53.57,52.8,48.67,15.03
Bollnäs,0,SE,1588185599,54,61.35,16.39,37.0,4.25
Alofi,100,NU,1588185599,94,-19.06,-169.92,75.2,13.87
Whyalla,21,AU,1588185599,87,-33.03,137.58,48.2,11.41
Dubica,40,BA,1588185525,82,45.18,16.81,59.0,3.36
Dédougou,36,BF,1588185599,19,12.47,-3.47,100.6,5.08
Ilulissat,20,GL,1588185599,58,69.22,-51.1,28.4,6.93
Ca Mau,100,VN,1588185600,77,9.18,105.15,82.47,8.14
Mount Gambier,75,AU,1588185370,93,-37.83,140.77,46.4,6.93
Mosetse,26,BW,1588185600,36,-20.75,26.65,67.86,1.92
Saint-Gédéon,75,CA,1588185600,43,48.5,-71.77,51.8,6.93
Nishihara,20,JP,1588185600,82,26.18,127.76,68.0,4.7
Port Hedland,100,AU,1588185601,21,-20.32,118.57,84.2,17.22
Andapa,45,MG,1588185601,76,-14.65,49.65,65.64,2.59
Rio Grande,0,BR,1588185601,34,-32.03,-52.1,78.8,12.75
Tynda,5,RU,1588185601,67,55.17,124.72,36.5,4.38
Cabedelo,40,BR,1588185601,74,-6.98,-34.83,84.2,11.41
Hīt,89,IQ,1588185601,33,33.64,42.83,76.69,8.88
Jardim do Seridó,99,BR,1588185601,54,-6.58,-36.77,86.88,11.18
Rome,90,US,1588185602,38,43.21,-75.46,62.01,17.22
Puksoozero,100,RU,1588185602,96,62.59,40.61,30.54,6.46
Tadine,11,NC,1588185602,82,-21.55,167.88,74.82,15.19
Yar-Sale,70,RU,1588185602,95,66.83,70.83,16.41,16.46
Thunder Bay,20,CA,1588185519,38,48.4,-89.32,59.0,9.17
São José da Coroa Grande,8,BR,1588185602,73,-8.9,-35.15,81.45,9.66
Mil'kovo,30,RU,1588185602,89,54.72,158.62,29.03,3.06
Kysyl-Syr,0,RU,1588185603,96,63.9,122.76,19.98,4.36
Ngorongoro,98,TZ,1588185603,55,-3.24,35.49,53.51,5.39
Marrakesh,20,MA,1588185552,34,31.63,-8.01,78.8,9.17
Aswān,0,EG,1588185663,17,24.09,32.91,78.1,14.45
Inongo,100,CD,1588185663,70,-1.95,18.27,77.2,1.07
Marzuq,25,YE,1588185663,43,14.4,46.47,78.37,7.87
Olivenza,20,ES,1588185663,68,38.68,-7.1,66.2,14.99
Pekalongan,70,ID,1588185664,80,-6.89,109.68,80.19,2.46
Belyy Yar,100,RU,1588185664,52,53.6,91.39,68.0,15.66
Lompoc,1,US,1588185664,77,34.64,-120.46,71.01,5.82
Tarquinia,20,IT,1588185664,93,42.25,11.76,57.99,5.82
Nyurba,0,RU,1588185664,94,63.28,118.33,24.93,3.94
Khovd,99,MN,1588185665,23,48.01,91.64,65.52,8.84
Mundo Nuevo (Ojo de Agua),0,MX,1588185665,58,18.7,-95.5,87.78,13.15
São Gabriel da Cachoeira,73,BR,1588185665,83,-0.13,-67.09,84.0,1.36
Hatillo,4,PR,1588185665,94,18.49,-66.83,84.99,4.0
Sikandra Rao,0,IN,1588185665,32,27.7,78.4,87.6,4.38
Huilong,61,CN,1588185665,93,31.81,121.66,66.0,8.97
Cleveland,75,US,1588184976,38,41.5,-81.7,73.4,18.34
Pedernales,20,DO,1588185666,55,18.04,-71.74,89.6,20.8
Athabasca,0,CA,1588185553,27,54.72,-113.29,62.65,13.31
Kostomuksha,86,RU,1588185666,96,64.57,30.58,25.9,5.82
Māngrol,0,IN,1588185666,83,21.12,70.12,80.17,11.86
St. George's,75,GD,1588185482,74,12.06,-61.75,84.2,17.22
Qasigiannguit,20,GL,1588185666,58,68.82,-51.19,28.4,6.93
Tromsø,0,NO,1588185426,40,69.65,18.96,33.8,19.46
Chifeng,90,CN,1588185667,34,42.27,118.96,58.96,7.38
Malanje,0,AO,1588185667,65,-9.54,16.34,67.51,1.34
Tūkrah,86,LY,1588185667,67,32.53,20.58,66.65,11.48
Ridgecrest,75,US,1588185601,19,35.62,-117.67,91.99,7.61
Hamilton,90,US,1588185667,87,39.18,-84.53,62.01,10.29
Deputatsky,100,RU,1588185668,92,69.3,139.9,11.14,3.47
Lagoa,32,PT,1588185668,86,39.05,-27.98,62.56,29.42
Nuuk,5,GL,1588185668,64,64.18,-51.72,37.4,9.17
Kaeo,79,NZ,1588185668,93,-35.1,173.78,57.99,1.01
Port-Cartier,20,CA,1588185668,45,50.03,-66.87,44.6,5.82
Katsuura,20,JP,1588185668,93,35.13,140.3,59.0,5.82
Temyasovo,20,RU,1588185668,60,52.99,58.1,39.2,11.18
Brigantine,1,US,1588185391,55,39.41,-74.36,60.8,23.04
Trairi,100,BR,1588185669,87,-3.28,-39.27,81.43,6.11
Banjar,40,ID,1588185669,94,-8.19,114.97,82.4,6.93
Madhupur,90,IN,1588185669,44,24.25,86.65,82.67,7.31
Waddān,12,LY,1588185669,14,29.16,16.14,87.8,20.36
La Cruz,0,MX,1588185670,54,23.92,-106.9,84.99,8.01
Bacolod City,100,PH,1588185403,73,10.67,122.95,79.84,6.87
Koumac,0,NC,1588185670,83,-20.57,164.28,72.79,5.23
Kondinskoye,19,RU,1588185670,83,59.65,67.41,47.43,10.67
Necochea,85,AR,1588185615,80,-38.55,-58.74,62.01,18.99
San Ignacio,75,BZ,1588185730,52,17.16,-89.07,93.2,4.7
Gorontalo,86,ID,1588185730,89,0.54,123.06,75.81,2.26
Neepawa,40,CA,1588185725,58,50.23,-99.47,55.4,5.82
Ammon,1,US,1588185679,21,43.47,-111.97,70.0,4.7
Dunedin,30,NZ,1588185592,61,-45.87,170.5,51.01,4.74
Buraidah,40,SA,1588185731,37,26.33,43.98,84.2,13.87
Guerrero Negro,10,MX,1588185605,57,27.98,-114.06,70.75,12.15
Nouakchott,100,MR,1588185600,33,18.09,-15.98,87.8,19.46
Changji,3,CN,1588185731,33,44.02,87.32,75.2,13.42
Ixtapa,5,MX,1588185731,44,20.7,-105.2,80.6,9.17
Pisco,0,PE,1588185641,73,-13.7,-76.22,72.0,12.75
Manzanillo,39,CU,1588185732,52,20.34,-77.12,88.05,11.56
Doha,75,QA,1588185732,65,25.29,51.53,84.2,17.22
Jasper,90,US,1588185732,59,37.2,-94.35,60.8,21.92
Varangaon,0,IN,1588185732,16,21.02,75.9,88.84,2.1
Philadelphia,40,US,1588185449,45,39.95,-75.16,69.01,20.8
Yatou,5,CN,1588185733,94,37.15,122.38,52.25,10.83
Saint-Joseph,75,RE,1588185733,64,-21.37,55.62,73.4,13.87
Vágur,7,FO,1588185733,71,61.47,-6.81,40.55,9.44
Portland,75,US,1588185699,63,45.52,-122.68,68.0,8.05
Edgewater,40,US,1588185733,42,28.99,-80.9,82.99,17.22
Itoman,20,JP,1588185733,77,26.12,127.67,68.0,5.82
Tak,100,TH,1588185734,75,16.58,98.83,68.68,1.48
Āstāneh-ye Ashrafīyeh,100,IR,1588185734,82,37.26,49.94,56.39,0.72
A Coruña,20,ES,1588185734,82,43.37,-8.4,57.0,11.41
Margate,100,GB,1588185734,85,51.38,1.39,53.01,21.47
Florø,40,NO,1588185734,65,61.6,5.03,46.4,13.87
Tandil,0,AR,1588185462,55,-37.32,-59.13,64.99,8.99
Mayor Pablo Lagerenza,47,PY,1588185735,46,-19.93,-60.77,89.29,1.23
Grootfontein,67,NA,1588185735,25,-19.57,18.12,69.03,0.94
Flinders,100,AU,1588185735,77,-34.58,150.86,68.0,7.0
Najrān,75,SA,1588185724,54,17.49,44.13,80.6,9.17
Lima,0,PE,1588185654,73,-12.04,-77.03,71.6,9.17
Karakol,91,KG,1588185735,39,42.49,78.39,51.03,3.24
Bulgan,0,MN,1588185735,33,48.81,103.53,57.51,3.62
Port Hardy,90,CA,1588185736,81,50.7,-127.42,50.0,4.7
Atar,100,MR,1588185736,18,20.52,-13.05,98.6,6.93
Creel,0,MX,1588185736,7,27.75,-107.63,77.67,6.4
Shenjiamen,0,CN,1588185736,86,29.96,122.3,63.5,18.48
Ust-Nera,85,RU,1588185736,88,64.57,143.2,19.0,5.86
Yeppoon,40,AU,1588185736,88,-23.13,150.73,69.8,6.93
Tuatapere,100,NZ,1588185737,76,-46.13,167.68,49.78,7.23
Naze,75,JP,1588185737,87,28.37,129.48,57.2,3.36
Saint-Louis,54,SN,1588185797,11,16.33,-15.0,111.2,9.84
Krian,89,ID,1588185797,82,-7.41,112.58,77.88,2.37
Churapcha,100,RU,1588185797,96,62.0,132.43,28.15,19.98
Zharkent,13,KZ,1588185798,44,44.16,80.0,67.59,1.81
Ngunguru,36,NZ,1588185798,84,-35.62,174.5,57.99,3.0
Itapetininga,0,BR,1588185798,41,-23.59,-48.05,75.83,5.37
Avera,75,US,1588185798,44,33.19,-82.53,80.6,16.11
Atambua,55,ID,1588185798,77,-9.11,124.89,70.66,4.38
Mocuba,0,MZ,1588185798,84,-16.84,36.99,67.57,2.77
Manggar,73,ID,1588185799,80,-2.88,108.27,79.36,2.08
Mthatha,97,ZA,1588185799,82,-31.59,28.78,55.4,9.17
Kiunga,100,PG,1588185799,97,-6.12,141.29,74.79,3.29
Kutum,0,SD,1588185799,10,14.2,24.67,82.26,12.93
Kerrobert,75,CA,1588185631,25,51.92,-109.13,62.6,11.41
Manicoré,100,BR,1588185730,70,-5.81,-61.3,87.67,3.51
Shellbrook,75,CA,1588185673,33,53.22,-106.4,62.6,12.75
Colares,100,PT,1588185800,72,38.8,-9.45,64.0,9.17
Plymouth,1,US,1588185800,40,41.83,-70.83,57.99,9.17
Labuan,75,MY,1588185800,94,5.28,115.24,80.6,8.12
Bereda,100,ES,1588185800,98,43.27,-7.54,55.99,14.0
Muhafazat Lahij,64,YE,1588185801,49,13.17,44.58,85.03,6.15
Teguise,20,ES,1588185801,60,29.06,-13.56,69.8,18.34
Brits,20,ZA,1588185789,62,-25.63,27.78,59.0,3.36
Matagami,40,CA,1588185801,27,49.75,-77.63,51.8,17.22
Auki,100,SB,1588185802,81,-8.77,160.7,79.07,3.22
Morant Bay,20,JM,1588185802,70,17.88,-76.41,86.0,19.46
Suez,0,EG,1588185802,47,29.97,32.53,67.33,14.72
São João da Barra,75,BR,1588185802,65,-21.64,-41.05,78.8,10.29
Terrace,75,CA,1588185802,62,54.52,-128.6,51.8,13.87
Pangai,90,TO,1588185803,94,-19.8,-174.35,75.2,14.99
Coquimbo,75,CL,1588185508,77,-29.95,-71.34,62.6,12.75
Griffith,90,US,1588185727,100,41.53,-87.42,55.4,9.04
Pingyin,0,CN,1588185803,49,36.28,116.45,77.0,1.01
Bethel,90,US,1588185803,54,41.37,-73.41,54.0,12.75
Ulaanbaatar,0,MN,1588185803,52,47.91,106.88,44.6,2.24
Ubari,100,LY,1588185804,11,26.59,12.78,88.92,7.58
Tlalchapa,45,MX,1588185804,18,18.4,-100.47,104.63,2.33
Oxford,100,GB,1588185804,66,51.75,-1.26,55.4,8.05
Keetmanshoop,0,NA,1588185804,33,-26.58,18.13,71.6,4.7
Isangel,37,VU,1588185805,83,-19.55,169.27,77.29,13.69
Mahanje,100,TZ,1588185805,72,-9.93,35.33,65.98,1.63
Safaga,0,EG,1588185805,31,26.73,33.94,76.14,15.52
Telfs,40,AT,1588185805,76,47.3,11.07,51.8,4.7
Penzance,40,GB,1588185805,87,50.12,-5.54,52.0,21.92
Loviisa,0,FI,1588185806,83,60.46,26.23,33.01,4.21
Cooma,100,AU,1588185866,76,-36.23,149.13,48.2,10.29
Huarmey,0,PE,1588185866,64,-10.07,-78.15,74.43,11.36
Santa Cruz,20,MA,1588185641,64,30.42,-9.6,69.8,16.11
Ambunti,67,PG,1588185866,97,-4.24,142.84,72.99,1.3
Bhūm,0,IN,1588185866,45,18.47,75.67,78.28,6.93
Palmerston,40,AU,1588185867,83,-12.49,130.98,80.6,4.7
Nālūt,0,LY,1588185867,10,30.33,10.85,86.29,8.19
Alexandria,0,EG,1588185616,77,31.22,29.96,64.65,7.67
Kamienna Góra,100,PL,1588185867,98,50.78,16.03,51.01,2.8
Aripuanã,23,BR,1588185867,61,-9.17,-60.63,87.08,3.96
Ladário,40,BR,1588185867,41,-19.0,-57.6,93.2,4.7
Santa Maria,0,BR,1588185868,57,-29.68,-53.81,77.0,4.7
Diu,0,IN,1588185868,71,20.71,70.98,80.87,12.68
Jalu,0,LY,1588185868,27,29.03,21.55,80.56,8.81
Biloela,94,AU,1588185868,88,-24.42,150.5,61.56,1.14
Shingū,0,JP,1588185868,73,33.73,135.98,52.93,6.82
Moyo,100,UG,1588185869,58,3.66,31.72,73.49,3.2
Tsiroanomandidy,44,MG,1588185869,63,-18.77,46.03,67.98,3.06
Aklavik,20,CA,1588185726,60,68.22,-135.01,8.6,8.05
Shevchenko,0,UA,1588185869,40,48.5,35.0,53.6,6.71
Ranong,100,TH,1588185869,83,9.97,98.63,79.3,2.64
Pochutla,75,MX,1588185869,46,15.74,-96.47,93.2,19.46
Sørland,0,NO,1588185870,56,67.67,12.69,41.0,11.41
Sola,0,VU,1588185870,80,-13.88,167.55,81.61,12.8
Kattivākkam,40,IN,1588185870,79,13.22,80.32,86.0,4.7
Moa,27,CU,1588185870,65,20.66,-74.94,83.97,12.57
Cham,75,CH,1588185870,54,47.18,8.46,59.0,5.82
Constitución,66,CL,1588185871,56,-35.33,-72.42,62.19,17.36
Arman',91,RU,1588185871,96,59.7,150.17,26.2,3.0
Srednekolymsk,99,RU,1588185871,96,67.45,153.68,17.06,5.23
Saint-François,100,FR,1588185871,71,46.42,3.91,57.2,2.64
Prainha,99,BR,1588185871,70,-1.8,-53.48,85.15,3.98
Luanda,40,AO,1588185649,78,-8.84,13.23,78.8,6.93
Fairview,90,US,1588185641,62,40.81,-74.0,57.99,9.17
Oleksandrivka,97,UA,1588185872,67,46.84,32.76,53.37,9.1
Novokizhinginsk,90,RU,1588185872,47,51.61,109.59,49.84,4.97
Tateyama,20,JP,1588185872,93,34.98,139.87,59.0,5.82
Naryan-Mar,97,RU,1588185872,97,67.67,53.09,24.37,14.97
Ous,98,RU,1588185873,89,60.91,61.52,39.56,6.93
Afonino,20,RU,1588185798,93,56.26,44.09,48.99,6.71
Mahrīz,75,IR,1588185873,45,31.59,54.43,66.2,6.93
Cortez,1,US,1588185873,17,37.35,-108.59,75.2,17.22
Vanimo,100,PG,1588185873,86,-2.67,141.3,78.08,5.19
Kiryat Gat,2,IL,1588185661,86,31.61,34.76,66.0,1.01
Quatre Cocos,75,MU,1588185933,78,-20.21,57.76,75.99,13.87
Prescott,1,US,1588185863,15,34.54,-112.47,86.0,8.05
Poum,0,NC,1588185934,78,-20.23,164.02,76.39,11.61
Mubi,63,NG,1588185934,25,10.27,13.26,93.27,4.16
Zhengjiatun,100,CN,1588185934,68,43.51,123.51,53.83,9.01
Finnsnes,20,NO,1588185935,47,69.23,17.98,35.6,13.87
Rognan,0,NO,1588185935,35,67.1,15.39,41.0,4.7
Mazagão,75,BR,1588185935,100,-0.12,-51.29,80.6,11.41
Pitimbu,40,BR,1588185935,74,-7.47,-34.81,84.2,11.41
Sambava,31,MG,1588185935,81,-14.27,50.17,75.6,13.82
Ossora,100,RU,1588185935,95,59.24,163.07,28.87,3.89
Fairbanks,1,US,1588185842,47,64.84,-147.72,36.0,11.41
Belmonte,40,BR,1588185936,61,-15.86,-38.88,80.6,6.93
Osorno,100,CL,1588185936,72,-40.57,-73.15,59.0,4.7
Sinnamary,100,GF,1588185936,92,5.38,-52.95,75.61,11.36
Shimoda,0,JP,1588185936,83,34.67,138.95,51.01,1.01
Kenai,1,US,1588185936,56,60.55,-151.26,46.0,3.36
Gambēla,100,ET,1588185936,66,8.25,34.58,78.1,2.66
Apodi,87,BR,1588185936,58,-5.66,-37.8,87.8,6.51
Langxiang,100,CN,1588185937,52,46.95,128.88,44.31,3.22
Mitsamiouli,99,KM,1588185937,76,-11.38,43.28,82.98,11.3
Labuhan,70,ID,1588185937,83,-6.88,112.21,79.2,6.06
Bosaso,100,SO,1588185937,63,11.28,49.18,88.65,4.97
Salalah,40,OM,1588185652,89,17.02,54.09,84.2,8.05
Vokhtoga,100,RU,1588185937,93,58.81,41.05,36.01,5.61
Wilmington,40,US,1588185857,44,34.23,-77.94,78.8,21.92
Seoul,1,KR,1588185673,61,37.57,126.98,46.4,3.06
Roald,75,NO,1588185938,75,62.58,6.13,45.0,3.36
Corowa,100,AU,1588185938,97,-36.03,146.38,50.0,5.03
Longyearbyen,75,SJ,1588185938,74,78.22,15.64,35.6,23.04
Yulara,0,AU,1588185938,48,-25.24,130.99,51.8,8.05
Mnogovershinnyy,100,RU,1588185939,78,53.94,139.92,32.63,4.79
Gobabis,49,NA,1588185939,32,-22.45,18.97,69.8,2.24
Sterling,75,US,1588185861,60,39.01,-77.43,75.0,6.93
Chiredzi,0,ZW,1588185939,58,-21.05,31.67,69.04,5.95
Vega de Alatorre,43,MX,1588185939,60,20.03,-96.63,87.4,10.69
Raudeberg,82,NO,1588185939,69,61.99,5.14,46.0,8.34
Winnemucca,1,US,1588185939,21,40.97,-117.74,78.8,7.67
Rantepao,100,ID,1588185940,72,-2.97,119.9,67.39,1.66
Adrian,90,US,1588185550,77,41.9,-84.04,63.0,23.04
Sonoita,0,MX,1588185940,13,31.85,-112.83,97.0,4.5
Okhotsk,100,RU,1588185940,95,59.38,143.3,28.36,7.72
Ginda,0,IN,1588185940,39,30.69,78.49,53.64,6.6
Karratha,0,AU,1588185940,30,-20.74,116.85,79.21,17.81
Methóni,75,GR,1588185941,77,36.82,21.7,66.99,6.6
Porto Nacional,40,BR,1588185941,46,-10.71,-48.42,91.4,8.05
Pachino,100,IT,1588185941,76,36.72,15.09,64.0,10.8
Agapovka,20,RU,1588185942,60,53.3,59.13,39.2,11.18
Sakakah,0,SA,1588186002,14,29.97,40.21,77.0,13.87
Psebay,0,RU,1588186002,53,44.12,40.81,45.79,5.21
Octeville,75,FR,1588186002,76,49.63,-1.64,55.0,9.17
Basoko,0,CD,1588186002,72,1.24,23.62,75.43,3.09
Itarema,100,BR,1588186002,82,-2.92,-39.92,81.66,8.9
Manjacaze,0,MZ,1588186003,93,-24.71,33.88,66.76,5.66
Coyhaique,90,CL,1588186003,81,-45.58,-72.07,53.6,5.82
